title,latitude,longitude,description
Godt brød,60.39069,5.32209,Stellebord med bleier
Galleriet,60.39307,5.32519,Do med stellebord. Sofa til amming i et rolig sted
Xhibition,60.39268,5.32621,Stort toalett med stellbord of amming stol. Rent og fint. Koden hentes fra Apoteket ved siden av.
Telegrafen,60.39219,5.32571,Skittent og ekkelt
Bergen Storsenter,60.38932,5.33259,Stellematte (myk) ved vasken og toallet. Stol til amming. Toalett for liten til å ta vognen med inn. Kode hentes på Cubus.
Horisont,60.47012,5.32234,mangler info
IKEA,60.47616,5.33187,Lekerom. Stellebord med bleier
